MN_,NAME_,LEVEL_,LONG_,LAT_,AD_CODE_,UPDATE_TIME_,SOURCE_
51010101001,灵岩寺,0,103.6125,31.02833333,5101810,,启用
51010401001,沙河铺,0,104.1122222,30.63055556,510104,,启用
51010501001,君平街,0,104.0424952,30.65612514,510105,,启用
51010501002,大石西路,0,104.0219429,30.65596142,510105,,启用
51010601002,金泉两河,0,103.9715785,30.7238205,510109,,启用
51010801001,十里店,0,104.1422621,30.67644072,510108,,启用
51010901001,三瓦窑,0,104.0592556,30.5763897,510109,,启用
51011201004,龙泉驿区区政府,0,104.2727379,30.55897931,510112,,启用
